"page_url","location_name","street_address","city","state","zip","country_code","store_number","phone","location_type","latitude","longitude","locator_domain","hours_of_operation","raw_address","record_id"
"https://www.soriana.com/buscador-de-tiendas","MIXCOAC REVOLUCION","AV. REVOLUCION 780 SAN JUAN","BENITO JUAREZ","DF","03730","MX","0857","<MISSING>","<MISSING>","19.3792","-99.1866","soriana.com","<MISSING>","<MISSING>","street_address:location_name"
"https://www.soriana.com/buscador-de-tiendas","MIXCOAC","MIGUEL ANGEL 170 MIXCOAC","BENITO JUAREZ","DF","03910","MX","0250","<MISSING>","<MISSING>","19.3841","-99.1888","soriana.com","<MISSING>","<MISSING>","street_address:location_name"
"https://www.soriana.com/buscador-de-tiendas","PILARES","PILARES 541 DEL VALLE","BENITO JUAREZ","DF","03100","MX","0692","<MISSING>","<MISSING>","19.3762","-99.1632","soriana.com","<MISSING>","<MISSING>","street_address:location_name"
"https://www.soriana.com/buscador-de-tiendas","EUGENIA","EUGENIA 901 DEL VALLE","BENITO JUAREZ","DF","03100","MX","0279","<MISSING>","<MISSING>","19.3861","-99.1638","soriana.com","<MISSING>","<MISSING>","street_address:location_name"
"https://www.soriana.com/buscador-de-tiendas","DIVISION DEL NORTE","MUNICIPIO LIBRE 314 SANTA CRUZ ATOYAC","BENITO JUAREZ","DF","03310","MX","0690","<MISSING>","<MISSING>","19.37","-99.1576","soriana.com","<MISSING>","<MISSING>","street_address:location_name"
"https://www.soriana.com/buscador-de-tiendas","TACUBAYA","GRAL JOSE MORAN 3 SAN MIGUEL CHAPULTEPEC","MIGUEL HIDALGO","DF","11850","MX","0257","<MISSING>","<MISSING>","19.4091","-99.184","soriana.com","<MISSING>","<MISSING>","street_address:location_name"
"https://www.soriana.com/buscador-de-tiendas","PARQUE DELTA","AV. CUAUHTEMOC 462 PIEDAD NARVARTE","BENITO JUAREZ","DF","03012","MX","0397","<MISSING>","<MISSING>","19.4024","-99.1543","soriana.com","<MISSING>","<MISSING>","street_address:location_name"
