"page_url","location_name","street_address","city","state","zip","country_code","store_number","phone","location_type","latitude","longitude","locator_domain","hours_of_operation","raw_address","record_id"
"https://bishops.co/locations/westminster/","Westminster","<LATER>","<LATER>","<LATER>","<LATER>","US","<MISSING>","303-353-4645","<MISSING>","39.95919","-104.99359","bishops.co","MON – FRI / 9-7PM, SAT / 9-6PM, SUN / 10-5PM","<MISSING>","page_url:location_name:latitude:longitude"
"https://bishops.co/locations/university-place/","University Place","<LATER>","<LATER>","<LATER>","<LATER>","US","<MISSING>","253-302-4610","<MISSING>","47.2251782","-122.5359443","bishops.co","MON / 10-7PM, TUES – THURS / 10-6PM, FRI – SUN / 10-7PM","<MISSING>","page_url:location_name:latitude:longitude"
"https://bishops.co/locations/charlotte-south-end/","CHARLOTTE SOUTH END","<LATER>","<LATER>","<LATER>","<LATER>","US","<MISSING>","980-498-2056","<MISSING>","<MISSING>","<MISSING>","bishops.co","MON – WED / 10-8PM, THURS / 10-6PM, FRI / 9-7PM, SAT / 9-6PM, SUN / 11-6PM","<MISSING>","page_url:location_name:latitude:longitude"
"https://bishops.co/locations/south-lamar/","South Lamar","<LATER>","<LATER>","<LATER>","<LATER>","US","<MISSING>","512-401-3344","<MISSING>","30.2430439","-97.7853624","bishops.co","MON – FRI / 9-8PM, SAT / 10-7PM, SUN / 11-7PM","<MISSING>","page_url:location_name:latitude:longitude"
"https://bishops.co/locations/red-mill/","Red Mill","<LATER>","<LATER>","<LATER>","<LATER>","US","<MISSING>","757-301-4800","<MISSING>","36.7638299","-76.0164985","bishops.co","MON – FRI / 10-8PM, SAT / 9-7PM, SUN / 10-6PM","<MISSING>","page_url:location_name:latitude:longitude"
"https://bishops.co/locations/santa-clara-square/","SANTA CLARA SQUARE","<LATER>","<LATER>","<LATER>","<LATER>","US","<MISSING>","(408) 882-3827","<MISSING>","37.3807906","-121.9744242","bishops.co","WED – SAT / 10-7PM, SUN / 10-5PM","<MISSING>","page_url:location_name:latitude:longitude"
"https://bishops.co/locations/on-broad/","On Broad","<LATER>","<LATER>","<LATER>","<LATER>","US","<MISSING>","804-912-2552","<MISSING>","37.5503772","-77.4513842","bishops.co","MON – FRI / 10-8PM, SAT & SUN / 10-6PM","<MISSING>","page_url:location_name:latitude:longitude"
"https://bishops.co/locations/minneapolis-north-east/","MINNEAPOLIS NORTH EAST","<LATER>","<LATER>","<LATER>","<LATER>","US","<MISSING>","612-545-5379","<MISSING>","<MISSING>","<MISSING>","bishops.co","MON – FRI / 10-8PM, SAT / 9-6PM, SUN / 10-6PM","<MISSING>","page_url:location_name:latitude:longitude"
"https://bishops.co/locations/lake-forest/","Lake Forest","<LATER>","<LATER>","<LATER>","<LATER>","US","<MISSING>","(949) 446-4994","<MISSING>","33.647099","-117.6886414","bishops.co","MON – SAT / 9-7PM, SUN / 9-5PM","<MISSING>","page_url:location_name:latitude:longitude"
"https://bishops.co/locations/navy-yard/","Navy Yard","<LATER>","<LATER>","<LATER>","<LATER>","US","<MISSING>","202-507-8226","<MISSING>","38.8771777","-77.0025114","bishops.co","MON / 9-7PM, TUES / 9-8PM, WED – FRI / 9-9PM, SAT / 9-7PM, SUN / 9-5PM","<MISSING>","page_url:location_name:latitude:longitude"
"https://bishops.co/locations/st-petersburg/","St. Petersburg","<LATER>","<LATER>","<LATER>","<LATER>","US","<MISSING>","727-289-2289","<MISSING>","27.7714647","-82.6435122","bishops.co","TUES – SAT / 9AM-7PM, SUN / 11AM-7PM","<MISSING>","page_url:location_name:latitude:longitude"
"https://bishops.co/locations/whiteaker/","Whiteaker","<LATER>","<LATER>","<LATER>","<LATER>","US","<MISSING>","541-636-3858","<MISSING>","44.0538848","-123.1080973","bishops.co","MON / 11-6PM, TUES – SUN / 10-6PM","<MISSING>","page_url:location_name:latitude:longitude"
"https://bishops.co/locations/east-irvine/","IRVINE GREAT PARK","<LATER>","<LATER>","<LATER>","<LATER>","US","<MISSING>","949-333-1448","<MISSING>","33.8286494","-117.8074577","bishops.co","MON – SAT / 9-7PM, SUN / 9-5PM","<MISSING>","page_url:location_name:latitude:longitude"
"https://bishops.co/locations/newcastle/","NEWCASTLE","<LATER>","<LATER>","<LATER>","<LATER>","US","<MISSING>","425-264-3149","<MISSING>","47.5433314","-122.1639311","bishops.co","MON – FRI / 10-8PM, SAT & SUN / 9-8PM","<MISSING>","page_url:location_name:latitude:longitude"
"https://bishops.co/locations/charlotte-midtown/","CHARLOTTE MIDTOWN","<LATER>","<LATER>","<LATER>","<LATER>","US","<MISSING>","704-332-5220","<MISSING>","35.2142934","-80.8354263","bishops.co","MON – THURS / 10-8PM, FRI / 9-7PM, SAT / 9-6PM, SUN / 11-6PM","<MISSING>","page_url:location_name:latitude:longitude"
"https://bishops.co/locations/austin-buro/","Austin Buro","<LATER>","<LATER>","<LATER>","<LATER>","US","<MISSING>","(512)551-9560","<MISSING>","<MISSING>","<MISSING>","bishops.co","MON – FRI/ 9AM-8PM, SAT & SUN / 10-7PM","<MISSING>","page_url:location_name:latitude:longitude"
"https://bishops.co/locations/pasadena/","PASADENA","<LATER>","<LATER>","<LATER>","<LATER>","US","<MISSING>","626-808-4350","<MISSING>","34.1463211","-118.1171769","bishops.co","TUES – SUN / 11-7PM","<MISSING>","page_url:location_name:latitude:longitude"
"https://bishops.co/locations/lowry/","LOWRY","<LATER>","<LATER>","<LATER>","<LATER>","US","<MISSING>","303-557-0232","<MISSING>","39.7201151","-104.9030642","bishops.co","MON – SAT / 9-8PM, SUN / 9-7PM","<MISSING>","page_url:location_name:latitude:longitude"
"https://bishops.co/locations/campbell/","CAMPBELL","<LATER>","<LATER>","<LATER>","<LATER>","US","<MISSING>","408-819-3573","<MISSING>","37.287176","-121.9487946","bishops.co","TUES – FRI / 10–7PM, SAT & SUN / 9-6PM","<MISSING>","page_url:location_name:latitude:longitude"
"https://bishops.co/locations/oakley/","OAKLEY","<LATER>","<LATER>","<LATER>","<LATER>","US","<MISSING>","513-978-1169","<MISSING>","39.1571611","-84.4252801","bishops.co","MON – FRI / 9-9PM, SAT / 8-8PM, SUN / 11-7PM","<MISSING>","page_url:location_name:latitude:longitude"
"https://bishops.co/locations/pleasanton/","PLEASANTON","<LATER>","<LATER>","<LATER>","<LATER>","US","<MISSING>","925-201-3487","<MISSING>","37.669406","-121.8587814","bishops.co","MON – SUN / 10-8PM","<MISSING>","page_url:location_name:latitude:longitude"
"https://bishops.co/locations/milwaukie/","MILWAUKIE","<LATER>","<LATER>","<LATER>","<LATER>","US","<MISSING>","503-303-4986","<MISSING>","45.4440565","-122.6439674","bishops.co","MON – THURS / 9-8PM, FRI – SUN / 10-6PM","<MISSING>","page_url:location_name:latitude:longitude"
"https://bishops.co/locations/happy-valley/","HAPPY VALLEY","<LATER>","<LATER>","<LATER>","<LATER>","US","<MISSING>","503-878-4994","<MISSING>","45.4280638","-122.502664","bishops.co","SUN – WED / 10-7PM, THURS – SAT / 9-7PM","<MISSING>","page_url:location_name:latitude:longitude"
"https://bishops.co/locations/clifton-heights/","CLIFTON HEIGHTS","<LATER>","<LATER>","<LATER>","<LATER>","US","<MISSING>","513-475-0500","<MISSING>","39.1284654","-84.5162626","bishops.co","MON – FRI / 9-9PM, SAT / 8-8PM, SUN / 11-7PM","<MISSING>","page_url:location_name:latitude:longitude"
"https://bishops.co/locations/cupertino/","CUPERTINO","<LATER>","<LATER>","<LATER>","<LATER>","US","<MISSING>","(408) 454-8321","<MISSING>","37.3246295","-122.0108852","bishops.co","WED – SUN / 10-6PM","<MISSING>","page_url:location_name:latitude:longitude"
"https://bishops.co/locations/issaquah/","ISSAQUAH","<LATER>","<LATER>","<LATER>","<LATER>","US","<MISSING>","425-677-7997","<MISSING>","47.5460589","-122.0618532","bishops.co","MON – SAT / 9-8PM, SUN / 9-7PM","<MISSING>","page_url:location_name:latitude:longitude"
"https://bishops.co/locations/4th-plain-andresen/","4th Plain & ANDRESEN","<LATER>","<LATER>","<LATER>","<LATER>","US","<MISSING>","360-314-2607","<MISSING>","45.6437871","-122.6013278","bishops.co","MON / 10-6PM, TUE – THURS / 10-8PM, FRI & SAT / 9-8PM, SUN / 10-6PM","<MISSING>","page_url:location_name:latitude:longitude"
"https://bishops.co/locations/san-jose-downtown/","SAN JOSE DOWNTOWN","<LATER>","<LATER>","<LATER>","<LATER>","US","<MISSING>","669-242-7116","<MISSING>","37.335121","-121.8924394","bishops.co","TUES – FRI / 10-7PM, SAT & SUN / 9-6PM","<MISSING>","page_url:location_name:latitude:longitude"
"https://bishops.co/locations/mill-plain/","EAST MILL PLAIN","<LATER>","<LATER>","<LATER>","<LATER>","US","<MISSING>","360-718-8564","<MISSING>","45.616948","-122.5069185","bishops.co","MON & TUES / 10-6PM, WED / 10-8PM, THURS – SAT / 9-8PM, SUN / 9-6PM","<MISSING>","page_url:location_name:latitude:longitude"
"https://bishops.co/locations/chamblee/","CHAMBLEE","<LATER>","<LATER>","<LATER>","<LATER>","US","<MISSING>","770-710-0830","<MISSING>","33.8883207","-84.3152979","bishops.co","MON TO FRI / 9AM – 8PM, SAT / 9AM – 6PM, SUN / 10AM – 6PM","<MISSING>","page_url:location_name:latitude:longitude"
"https://bishops.co/locations/billings-downtown/","BILLINGS","<LATER>","<LATER>","<LATER>","<LATER>","US","<MISSING>","406-534-4774","<MISSING>","45.8116484","-108.5169707","bishops.co","MON – SAT / 10-7PM","<MISSING>","page_url:location_name:latitude:longitude"
"https://bishops.co/locations/evansville-east/","EVANSVILLE","<LATER>","<LATER>","<LATER>","<LATER>","US","<MISSING>","812-401-1994","<MISSING>","37.975298","-87.4751647","bishops.co","MON – SAT / 10-8PM, SUN / 11-7PM","<MISSING>","page_url:location_name:latitude:longitude"
"https://bishops.co/locations/south-irvine/","SOUTH IRVINE","<LATER>","<LATER>","<LATER>","<LATER>","US","<MISSING>","949-333-2934","<MISSING>","33.650717","-117.8390817","bishops.co","MON – SAT / 10-8PM, SUN / 10-6PM","<MISSING>","page_url:location_name:latitude:longitude"
"https://bishops.co/locations/bellevue-way/","BELLEVUE","<LATER>","<LATER>","<LATER>","<LATER>","US","<MISSING>","425-679-6692","<MISSING>","47.6131412","-122.2034488","bishops.co","MON / 10-6PM, TUES – FRI / 10-8PM, SAT / 10-6PM, SUN / 11-5PM","<MISSING>","page_url:location_name:latitude:longitude"
"https://bishops.co/locations/fremont/","FREMONT","<LATER>","<LATER>","<LATER>","<LATER>","US","<MISSING>","206-739-5931","<MISSING>","47.6513935","-122.3453023","bishops.co","MON – SUN / 10-6PM","<MISSING>","page_url:location_name:latitude:longitude"
"https://bishops.co/locations/clintonville/","CLINTONVILLE","<LATER>","<LATER>","<LATER>","<LATER>","US","<MISSING>","614-670-5307","<MISSING>","40.0480748","-83.02048","bishops.co","MON / 10-5PM, TUES – FRI / 10-7PM, SAT / 9-6PM, SUN / 9-5PM","<MISSING>","page_url:location_name:latitude:longitude"
"https://bishops.co/locations/the-wedge/","TEMPE","<LATER>","<LATER>","<LATER>","<LATER>","US","<MISSING>","480-878-4243","<MISSING>","33.417419","-111.925887","bishops.co","MON – THURS / 11-7PM, FRI – SUN / 10-6PM","<MISSING>","page_url:location_name:latitude:longitude"
"https://bishops.co/locations/orenco-station/","ORENCO STATION","<LATER>","<LATER>","<LATER>","<LATER>","US","<MISSING>","503-747-7239","<MISSING>","45.5337944","-122.9191889","bishops.co","MON – SAT / 9AM-8PM, SUN / 9AM-7PM","<MISSING>","page_url:location_name:latitude:longitude"
"https://bishops.co/locations/multnomah-village/","MULTNOMAH VILLAGE","<LATER>","<LATER>","<LATER>","<LATER>","US","<MISSING>","503-244-1731","<MISSING>","45.4683532","-122.7126574","bishops.co","MON – SUN / 9-7PM","<MISSING>","page_url:location_name:latitude:longitude"
"https://bishops.co/locations/gresham-station/","GRESHAM","<LATER>","<LATER>","<LATER>","<LATER>","US","<MISSING>","503-907-1414","<MISSING>","45.504712","-122.438645","bishops.co","MON – SAT / 10-6PM, SUN / 11-6PM","<MISSING>","page_url:location_name:latitude:longitude"
"https://bishops.co/locations/downtown-bend/","BEND","<LATER>","<LATER>","<LATER>","<LATER>","US","<MISSING>","541-647-2703","<MISSING>","44.059606","-121.3128275","bishops.co","MON – SUN / 11-7PM","<MISSING>","page_url:location_name:latitude:longitude"
"https://bishops.co/locations/raleigh-hills/","RALEIGH HILLS","<LATER>","<LATER>","<LATER>","<LATER>","US","<MISSING>","503-546-9086","<MISSING>","45.485796","-122.7544171","bishops.co","MON – SUN / 9-7PM","<MISSING>","page_url:location_name:latitude:longitude"
