{"stores":[{"name":"Sprinter Elche","id_point":"995","id_channel":4,"id_market":1,"province":"Alicante","city":"Elx/elche","address":"Murcia-Alicante Km 54","zip":"03205","path":"es.es_a.995","id":195,"country":"ES","phone":"627597522","latitude":"38.25975000000","longitude":"-0.72666400000","url":"www.sprintersports.com/tienda-sprinter-elche","attributes":{"cac":true,"seo_url":{"es_ES":"/tienda-sprinter-elche"},"checkout":true,"seo_title":{"es_ES":"Sprinter Elche | Sprinter"},"big_volume":false,"cacCriteria":"20000","reserve_enabled":true,"seo_description":{"es_ES":"Descubre nuestra tienda Sprinter Elche, donde encontrarás gran variedad de productos en ropa y calzado y complementos deportivos para toda la familia."},"seo_meta_description":{"es_ES":"Descubre nuestra tienda Sprinter Elche, donde encontrarás gran variedad de ropa sport y zapatillas de marca."}},"active":true,"distance":1.9409287892851914},{"name":"Sprinter Elche Aljub","id_point":"96D","id_channel":4,"id_market":1,"province":"Alicante","city":"Elx/elche","address":"Jacarilla C.C. Aljub","zip":"03205","path":"es.es_a.96d","id":217,"country":"ES","phone":"667833577","latitude":"38.26231000000","longitude":"-0.72100000000","url":"www.sprintersports.com/tienda-sprinter-elche-aljub","attributes":{"cac":true,"seo_url":{"es_ES":"/tienda-sprinter-elche-aljub"},"checkout":true,"seo_title":{"es_ES":"Sprinter Elche Aljub | Sprinter"},"big_volume":false,"cacCriteria":"20000","reserve_enabled":true,"seo_description":{"es_ES":"Descubre nuestra tienda Sprinter Elche Aljub, donde encontrarás gran variedad de productos en ropa y calzado y complementos deportivos para toda la familia."},"seo_meta_description":{"es_ES":"Descubre nuestra tienda Sprinter Elche Aljub, donde encontrarás gran variedad de ropa sport y zapatillas de marca."}},"active":true,"distance":2.389374418108799},{"name":"Sprinter Altábix Elche","id_point":"965","id_channel":4,"id_market":1,"province":"Alicante","city":"Elx/elche","address":"Barchell Parc.2,  Nave 7","zip":"03203","path":"es.es_a.965","id":163,"country":"ES","phone":"627595359","latitude":"38.27102300000","longitude":"-0.67061400000","url":"www.sprintersports.com/tienda-sprinter-altabix-elche","attributes":{"cac":true,"seo_url":{"es_ES":"/tienda-sprinter-altabix-elche"},"checkout":true,"seo_title":{"es_ES":"Sprinter Altábix Elche | Sprinter"},"big_volume":false,"cacCriteria":"20000","reserve_enabled":true,"seo_description":{"es_ES":"Descubre nuestra tienda Sprinter Altábix Elche, donde encontrarás gran variedad de productos en ropa y calzado y complementos deportivos para toda la familia."},"seo_meta_description":{"es_ES":"Descubre nuestra tienda Sprinter Altábix Elche, donde encontrarás gran variedad de ropa sport y zapatillas de marca."}},"active":true,"distance":6.283114086538559},{"name":"Sprinter Santa Pola","id_point":"950","id_channel":4,"id_market":1,"province":"Alicante","city":"Santa Pola","address":"Elche","zip":"03130","path":"es.es_a.950","id":147,"country":"ES","phone":"627594503","latitude":"38.19872300000","longitude":"-0.56713200000","url":"www.sprintersports.com/tienda-sprinter-santa-pola","attributes":{"cac":true,"seo_url":{"es_ES":"/tienda-sprinter-santa-pola"},"checkout":true,"seo_title":{"es_ES":"Sprinter Santa Pola | Sprinter"},"big_volume":false,"cacCriteria":"20000","reserve_enabled":true,"seo_description":{"es_ES":"Descubre nuestra tienda Sprinter Santa Pola, donde encontrarás gran variedad de productos en ropa y calzado y complementos deportivos para toda la familia."},"seo_meta_description":{"es_ES":"Descubre nuestra tienda Sprinter Santa Pola, donde encontrarás gran variedad de ropa sport y zapatillas de marca."}},"active":true,"distance":15.316798611647101}]}
